Name,long,lat,type ,load
Colombo,79.861244,6.927079,hub,0.00
Hambanthota,81.101074,6.124593,city,4.00
Negombo,79.858734,7.189464,city,7.00
Galle,80.220978,6.053519,city,9.00
Gampaha,80.014366,7.087310,city,3.00
